{
    locales: [
        {
            "nombre": "Cafeteria Havanna",
            "estrellas": 5,
            "direccion": "Av. José Pardo 362, Miraflores 15074",
            "url": "https://img.restaurantguru.com/r127-design-Havanna-2021-09-71.jpg",
            "latitude": -12.118885932147121,
            "longitude": -77.03201718758665,
            "horario": "08:00 a 18:00 horas"
        },
        {
            "nombre": "Cafeteria La Favorita",
            "estrellas": 4,
            "direccion": "Av. José Larco 566, Miraflores 15074",
            "url": "https://media-cdn.tripadvisor.com/media/photo-p/16/9c/ac/06/20190227-182601-largejpg.jpg",
            "latitude": -12.122629234100296,
            "longitude": -77.02918126632176,
            "horario": "08:00 a 18:00 horas"
            
        },
        {
            "nombre": "Neira Café Lab",
            "estrellas": 5,
            "direccion": "Ca. Enrique Palacios 1074, Miraflores 15074",
            "url": "https://cafelab.pe/wp-content/uploads/2021/10/neira-cafelab-miraflores.jpg",
            "latitude": -12.117006169474985,
            "longitude": -77.03984248666654,
            "horario": "08:00 a 18:00 horas"
        },
        {
            "nombre": "La Mora Pastelería & Café",
            "estrellas": 5,
            "direccion": "C. José Galvez 491, Miraflores 15074",
            "url": "https://dynamic-media-cdn.tripadvisor.com/media/photo-s/02/a2/4d/d4/filename-la-mora-outside.jpg?w=500&h=300&s=1",
            "latitude": -12.121707466772897,
            "longitude": -77.03469841383458,
            "horario": "08:00 a 18:00 horas"
        },
        {
            "nombre": "Kulcafé",
            "estrellas": 4,
            "direccion": "Calle Bellavista 370, Miraflores 15074",
            "url": "https://media-cdn.tripadvisor.com/media/photo-s/06/8b/1a/40/kulcafe.jpg",
            "latitude": -12.122213123762403,
            "longitude": -77.0322720531094,
            "horario": "08:00 a 18:00 horas"
        },
        {
            "nombre": "Ágora cafe y arte",
            "estrellas": 3,
            "direccion": "Calle Diagonal 378, Miraflores 15074",
            "url": "https://media-cdn.tripadvisor.com/media/photo-s/14/e7/85/fe/desayuno-peruano.jpg",
            "latitude": -12.121355579607437,
            "longitude": -77.03072500639368,
            "horario": "10:00 a 22:00 horas"
        },
        {
            "nombre": "Café de la Paz",
            "estrellas": 4,
            "direccion": "Calle Tarata 227, Miraflores 15074",
            "url":"https://enlima.pe/sites/default/files/styles/imagen_830x550/public/node/local/images/cafe-de-la-paz-lima-01.jpg",
            "latitude": -12.12334163217333,
            "longitude": -77.02868976263593,
            "horario": "10:00 a 23:00 horas"
        },
    ]
}
